<?xml version="1.0" encoding="UTF-8"?>
<kml xmlns="http://earth.google.com/kml/2.1">
<Document>
	<name><![CDATA[List of nuclear power stations]]></name>
	<open>1</open>
	<Folder>
		<name><![CDATA[In service]]></name>
		<open>1</open>
		<Placemark>
			<name><![CDATA[Almaraz Nuclear Power Station]]></name>
			<Point>
				<coordinates>-5.69694444444445,39.8080555555556,0</coordinates>
			</Point>
			<Snippet></Snippet>
			<description><![CDATA[<br>Source: Wikipedia article <a href="http://en.wikipedia.org/wiki/List_of_nuclear_power_stations#In_service">List of nuclear power stations</a>]]></description>
		</Placemark>
		<Placemark>
			<name><![CDATA[Angra Nuclear Power Station]]></name>
			<Point>
				<coordinates>-44.4738888888889,-23.0083333333333,0</coordinates>
			</Point>
			<Snippet></Snippet>
			<description><![CDATA[<br>Source: Wikipedia article <a href="http://en.wikipedia.org/wiki/List_of_nuclear_power_stations#cite_ref-1">List of nuclear power stations</a>]]></description>
		</Placemark>
		<Placemark>
			<name><![CDATA[Arkansas Nuclear One]]></name>
			<Point>
				<coordinates>-93.2313888888889,35.3102777777778,0</coordinates>
			</Point>
			<Snippet></Snippet>
			<description><![CDATA[<br>Source: Wikipedia article <a href="http://en.wikipedia.org/wiki/List_of_nuclear_power_stations#cite_ref-1">List of nuclear power stations</a>]]></description>
		</Placemark>
		<Placemark>
			<name><![CDATA[Ascó Nuclear Power Station]]></name>
			<Point>
				<coordinates>0.569444444444444,41.2,0</coordinates>
			</Point>
			<Snippet></Snippet>
			<description><![CDATA[<br>Source: Wikipedia article <a href="http://en.wikipedia.org/wiki/List_of_nuclear_power_stations#cite_ref-1">List of nuclear power stations</a>]]></description>
		</Placemark>
		<Placemark>
			<name><![CDATA[Balakovo Nuclear Power Station]]></name>
			<Point>
				<coordinates>47.9552777777778,52.0911111111111,0</coordinates>
			</Point>
			<Snippet></Snippet>
			<description><![CDATA[<br>Source: Wikipedia article <a href="http://en.wikipedia.org/wiki/List_of_nuclear_power_stations#cite_ref-1">List of nuclear power stations</a>]]></description>
		</Placemark>
		<Placemark>
			<name><![CDATA[Beaver Valley Nuclear Power Station]]></name>
			<Point>
				<coordinates>-80.4305555555556,40.6233333333333,0</coordinates>
			</Point>
			<Snippet></Snippet>
			<description><![CDATA[<br>Source: Wikipedia article <a href="http://en.wikipedia.org/wiki/List_of_nuclear_power_stations#cite_ref-1">List of nuclear power stations</a>]]></description>
		</Placemark>
		<Placemark>
			<name><![CDATA[Belleville Nuclear Power Plant]]></name>
			<Point>
				<coordinates>2.875,47.5097222222222,0</coordinates>
			</Point>
			<Snippet></Snippet>
			<description><![CDATA[<br>Source: Wikipedia article <a href="http://en.wikipedia.org/wiki/List_of_nuclear_power_stations#cite_ref-1">List of nuclear power stations</a>]]></description>
		</Placemark>
		<Placemark>
			<name><![CDATA[Blayais Nuclear Power Plant]]></name>
			<Point>
				<coordinates>0.693055555555556,45.2558333333333,0</coordinates>
			</Point>
			<Snippet></Snippet>
			<description><![CDATA[<br>Source: Wikipedia article <a href="http://en.wikipedia.org/wiki/List_of_nuclear_power_stations#cite_ref-IndustryCardsNuclearFrance_2-0">List of nuclear power stations</a>]]></description>
		</Placemark>
		<Placemark>
			<name><![CDATA[Braidwood Nuclear Power Station]]></name>
			<Point>
				<coordinates>-88.2291666666667,41.2436111111111,0</coordinates>
			</Point>
			<Snippet></Snippet>
			<description><![CDATA[<br>Source: Wikipedia article <a href="http://en.wikipedia.org/wiki/List_of_nuclear_power_stations#cite_ref-IndustryCardsNuclearFrance_2-1">List of nuclear power stations</a>]]></description>
		</Placemark>
		<Placemark>
			<name><![CDATA[Brokdorf Nuclear Power Station]]></name>
			<Point>
				<coordinates>9.34472222222222,53.8508333333333,0</coordinates>
			</Point>
			<Snippet></Snippet>
			<description><![CDATA[<br>Source: Wikipedia article <a href="http://en.wikipedia.org/wiki/List_of_nuclear_power_stations#cite_ref-IndustryCardsNuclearFrance_2-1">List of nuclear power stations</a>]]></description>
		</Placemark>
		<Placemark>
			<name><![CDATA[Browns Ferry Nuclear Power Station]]></name>
			<Point>
				<coordinates>-87.1186111111111,34.7038888888889,0</coordinates>
			</Point>
			<Snippet></Snippet>
			<description><![CDATA[<br>Source: Wikipedia article <a href="http://en.wikipedia.org/wiki/List_of_nuclear_power_stations#cite_ref-IndustryCardsNuclearFrance_2-1">List of nuclear power stations</a>]]></description>
		</Placemark>
		<Placemark>
			<name><![CDATA[[Bruce Nuclear Generating Station]]></name>
			<Point>
				<coordinates>-81.5994444444444,44.7038888888889,0</coordinates>
			</Point>
			<Snippet></Snippet>
			<description><![CDATA[<br>Source: Wikipedia article <a href="http://en.wikipedia.org/wiki/List_of_nuclear_power_stations#cite_ref-IndustryCardsNuclearFrance_2-1">List of nuclear power stations</a>]]></description>
		</Placemark>
		<Placemark>
			<name><![CDATA[Brunswick Nuclear Generating Station]]></name>
			<Point>
				<coordinates>-78.0102777777778,33.9583333333333,0</coordinates>
			</Point>
			<Snippet></Snippet>
			<description><![CDATA[<br>Source: Wikipedia article <a href="http://en.wikipedia.org/wiki/List_of_nuclear_power_stations#cite_ref-Bruce_3-0">List of nuclear power stations</a>]]></description>
		</Placemark>
		<Placemark>
			<name><![CDATA[Bugey Nuclear Power Station]]></name>
			<Point>
				<coordinates>5.27083333333333,45.3252777777778,0</coordinates>
			</Point>
			<Snippet></Snippet>
			<description><![CDATA[<br>Source: Wikipedia article <a href="http://en.wikipedia.org/wiki/List_of_nuclear_power_stations#cite_ref-4">List of nuclear power stations</a>]]></description>
		</Placemark>
		<Placemark>
			<name><![CDATA[Bushehr Nuclear Power Plant]]></name>
			<Point>
				<coordinates>50.8861111111111,28.8297222222222,0</coordinates>
			</Point>
			<Snippet></Snippet>
			<description><![CDATA[<br>Source: Wikipedia article <a href="http://en.wikipedia.org/wiki/List_of_nuclear_power_stations#cite_ref-IndustryCardsNuclearFrance_2-2">List of nuclear power stations</a>]]></description>
		</Placemark>
		<Placemark>
			<name><![CDATA[Byron Nuclear Generating Station]]></name>
			<Point>
				<coordinates>-89.2819444444444,42.0741666666667,0</coordinates>
			</Point>
			<Snippet></Snippet>
			<description><![CDATA[<br>Source: Wikipedia article <a href="http://en.wikipedia.org/wiki/List_of_nuclear_power_stations#cite_ref-IndustryCardsNuclearFrance_2-2">List of nuclear power stations</a>]]></description>
		</Placemark>
		<Placemark>
			<name><![CDATA[Callaway Plant]]></name>
			<Point>
				<coordinates>-91.78,38.7616666666667,0</coordinates>
			</Point>
			<Snippet></Snippet>
			<description><![CDATA[<br>Source: Wikipedia article <a href="http://en.wikipedia.org/wiki/List_of_nuclear_power_stations#cite_ref-IndustryCardsNuclearFrance_2-2">List of nuclear power stations</a>]]></description>
		</Placemark>
		<Placemark>
			<name><![CDATA[Calvert Cliffs Nuclear Power Station]]></name>
			<Point>
				<coordinates>-76.4422222222222,38.4319444444444,0</coordinates>
			</Point>
			<Snippet></Snippet>
			<description><![CDATA[<br>Source: Wikipedia article <a href="http://en.wikipedia.org/wiki/List_of_nuclear_power_stations#cite_ref-IndustryCardsNuclearFrance_2-2">List of nuclear power stations</a>]]></description>
		</Placemark>
		<Placemark>
			<name><![CDATA[Catawba Nuclear Station]]></name>
			<Point>
				<coordinates>-81.07,35.0516666666667,0</coordinates>
			</Point>
			<Snippet></Snippet>
			<description><![CDATA[<br>Source: Wikipedia article <a href="http://en.wikipedia.org/wiki/List_of_nuclear_power_stations#cite_ref-IndustryCardsNuclearFrance_2-2">List of nuclear power stations</a>]]></description>
		</Placemark>
		<Placemark>
			<name><![CDATA[Cattenom Nuclear Power Station]]></name>
			<Point>
				<coordinates>6.21805555555556,49.4158333333333,0</coordinates>
			</Point>
			<Snippet></Snippet>
			<description><![CDATA[<br>Source: Wikipedia article <a href="http://en.wikipedia.org/wiki/List_of_nuclear_power_stations#cite_ref-IndustryCardsNuclearFrance_2-2">List of nuclear power stations</a>]]></description>
		</Placemark>
		<Placemark>
			<name><![CDATA[Cernavoda Nuclear Power Station]]></name>
			<Point>
				<coordinates>28.0572222222222,44.3222222222222,0</coordinates>
			</Point>
			<Snippet></Snippet>
			<description><![CDATA[<br>Source: Wikipedia article <a href="http://en.wikipedia.org/wiki/List_of_nuclear_power_stations#cite_ref-IndustryCardsNuclearFrance_2-3">List of nuclear power stations</a>]]></description>
		</Placemark>
		<Placemark>
			<name><![CDATA[Chinon Nuclear Power Station]]></name>
			<Point>
				<coordinates>0.170555555555556,47.2305555555556,0</coordinates>
			</Point>
			<Snippet></Snippet>
			<description><![CDATA[<br>Source: Wikipedia article <a href="http://en.wikipedia.org/wiki/List_of_nuclear_power_stations#cite_ref-5">List of nuclear power stations</a>]]></description>
		</Placemark>
		<Placemark>
			<name><![CDATA[Chin Shan Nuclear Power Plant]]></name>
			<Point>
				<coordinates>121.567777777778,25.2913888888889,0</coordinates>
			</Point>
			<Snippet></Snippet>
			<description><![CDATA[<br>Source: Wikipedia article <a href="http://en.wikipedia.org/wiki/List_of_nuclear_power_stations#cite_ref-IndustryCardsNuclearFrance_2-4">List of nuclear power stations</a>]]></description>
		</Placemark>
		<Placemark>
			<name><![CDATA[Chooz Nuclear Power Station]]></name>
			<Point>
				<coordinates>4.78944444444444,50.09,0</coordinates>
			</Point>
			<Snippet></Snippet>
			<description><![CDATA[<br>Source: Wikipedia article <a href="http://en.wikipedia.org/wiki/List_of_nuclear_power_stations#cite_ref-7">List of nuclear power stations</a>]]></description>
		</Placemark>
		<Placemark>
			<name><![CDATA[Civaux Nuclear Power Station]]></name>
			<Point>
				<coordinates>0.652777777777778,46.4566666666667,0</coordinates>
			</Point>
			<Snippet></Snippet>
			<description><![CDATA[<br>Source: Wikipedia article <a href="http://en.wikipedia.org/wiki/List_of_nuclear_power_stations#cite_ref-IndustryCardsNuclearFrance_2-5">List of nuclear power stations</a>]]></description>
		</Placemark>
		<Placemark>
			<name><![CDATA[Clinton Nuclear Generating Station]]></name>
			<Point>
				<coordinates>-88.835,40.1722222222222,0</coordinates>
			</Point>
			<Snippet></Snippet>
			<description><![CDATA[<br>Source: Wikipedia article <a href="http://en.wikipedia.org/wiki/List_of_nuclear_power_stations#cite_ref-IndustryCardsNuclearFrance_2-6">List of nuclear power stations</a>]]></description>
		</Placemark>
		<Placemark>
			<name><![CDATA[Cofrentes Nuclear Power Station]]></name>
			<Point>
				<coordinates>-1.05,39.2166666666667,0</coordinates>
			</Point>
			<Snippet></Snippet>
			<description><![CDATA[<br>Source: Wikipedia article <a href="http://en.wikipedia.org/wiki/List_of_nuclear_power_stations#cite_ref-IndustryCardsNuclearFrance_2-6">List of nuclear power stations</a>]]></description>
		</Placemark>
		<Placemark>
			<name><![CDATA[Columbia Nuclear Power Station]]></name>
			<Point>
				<coordinates>-119.333888888889,46.4711111111111,0</coordinates>
			</Point>
			<Snippet></Snippet>
			<description><![CDATA[<br>Source: Wikipedia article <a href="http://en.wikipedia.org/wiki/List_of_nuclear_power_stations#cite_ref-IndustryCardsNuclearFrance_2-6">List of nuclear power stations</a>]]></description>
		</Placemark>
		<Placemark>
			<name><![CDATA[Comanche Peak Nuclear Power Station]]></name>
			<Point>
				<coordinates>-97.785,32.2983333333333,0</coordinates>
			</Point>
			<Snippet></Snippet>
			<description><![CDATA[<br>Source: Wikipedia article <a href="http://en.wikipedia.org/wiki/List_of_nuclear_power_stations#cite_ref-IndustryCardsNuclearFrance_2-6">List of nuclear power stations</a>]]></description>
		</Placemark>
		<Placemark>
			<name><![CDATA[Cruas Nuclear Power Station]]></name>
			<Point>
				<coordinates>4.75666666666667,44.6330555555556,0</coordinates>
			</Point>
			<Snippet></Snippet>
			<description><![CDATA[<br>Source: Wikipedia article <a href="http://en.wikipedia.org/wiki/List_of_nuclear_power_stations#cite_ref-IndustryCardsNuclearFrance_2-6">List of nuclear power stations</a>]]></description>
		</Placemark>
		<Placemark>
			<name><![CDATA[Dampierre Nuclear Power Plant]]></name>
			<Point>
				<coordinates>2.51666666666667,47.7330555555556,0</coordinates>
			</Point>
			<Snippet></Snippet>
			<description><![CDATA[<br>Source: Wikipedia article <a href="http://en.wikipedia.org/wiki/List_of_nuclear_power_stations#cite_ref-IndustryCardsNuclearFrance_2-7">List of nuclear power stations</a>]]></description>
		</Placemark>
		<Placemark>
			<name><![CDATA[Darlington Nuclear Power Station]]></name>
			<Point>
				<coordinates>-78.7197222222222,43.8727777777778,0</coordinates>
			</Point>
			<Snippet></Snippet>
			<description><![CDATA[<br>Source: Wikipedia article <a href="http://en.wikipedia.org/wiki/List_of_nuclear_power_stations#cite_ref-IndustryCardsNuclearFrance_2-8">List of nuclear power stations</a>]]></description>
		</Placemark>
		<Placemark>
			<name><![CDATA[Daya Bay Nuclear Power Plant]]></name>
			<Point>
				<coordinates>114.543611111111,22.5977777777778,0</coordinates>
			</Point>
			<Snippet></Snippet>
			<description><![CDATA[<br>Source: Wikipedia article <a href="http://en.wikipedia.org/wiki/List_of_nuclear_power_stations#cite_ref-IndustryCardsNuclearFrance_2-8">List of nuclear power stations</a>]]></description>
		</Placemark>
		<Placemark>
			<name><![CDATA[Diablo Canyon Power Station]]></name>
			<Point>
				<coordinates>-120.856111111111,35.2108333333333,0</coordinates>
			</Point>
			<Snippet></Snippet>
			<description><![CDATA[<br>Source: Wikipedia article <a href="http://en.wikipedia.org/wiki/List_of_nuclear_power_stations#cite_ref-IndustryCardsNuclearChina_8-0">List of nuclear power stations</a>]]></description>
		</Placemark>
		<Placemark>
			<name><![CDATA[Doel Nuclear Power Station]]></name>
			<Point>
				<coordinates>4.25861111111111,51.3247222222222,0</coordinates>
			</Point>
			<Snippet></Snippet>
			<description><![CDATA[<br>Source: Wikipedia article <a href="http://en.wikipedia.org/wiki/List_of_nuclear_power_stations#cite_ref-IndustryCardsNuclearChina_8-0">List of nuclear power stations</a>]]></description>
		</Placemark>
		<Placemark>
			<name><![CDATA[Donald Cook Nuclear Power Station]]></name>
			<Point>
				<coordinates>-86.5658333333333,41.9752777777778,0</coordinates>
			</Point>
			<Snippet></Snippet>
			<description><![CDATA[<br>Source: Wikipedia article <a href="http://en.wikipedia.org/wiki/List_of_nuclear_power_stations#cite_ref-IndustryCardsNuclearChina_8-0">List of nuclear power stations</a>]]></description>
		</Placemark>
		<Placemark>
			<name><![CDATA[Dresden Nuclear Power Plant]]></name>
			<Point>
				<coordinates>-88.2680555555555,41.3897222222222,0</coordinates>
			</Point>
			<Snippet></Snippet>
			<description><![CDATA[<br>Source: Wikipedia article <a href="http://en.wikipedia.org/wiki/List_of_nuclear_power_stations#cite_ref-9">List of nuclear power stations</a>]]></description>
		</Placemark>
		<Placemark>
			<name><![CDATA[Dukovany Nuclear Power Station]]></name>
			<Point>
				<coordinates>16.1488888888889,49.085,0</coordinates>
			</Point>
			<Snippet></Snippet>
			<description><![CDATA[<br>Source: Wikipedia article <a href="http://en.wikipedia.org/wiki/List_of_nuclear_power_stations#cite_ref-9">List of nuclear power stations</a>]]></description>
		</Placemark>
		<Placemark>
			<name><![CDATA[Dungeness Nuclear Power Station]]></name>
			<Point>
				<coordinates>0.963888888888889,50.9138888888889,0</coordinates>
			</Point>
			<Snippet></Snippet>
			<description><![CDATA[<br>Source: Wikipedia article <a href="http://en.wikipedia.org/wiki/List_of_nuclear_power_stations#cite_ref-10">List of nuclear power stations</a>]]></description>
		</Placemark>
		<Placemark>
			<name><![CDATA[Edwin Hatch Nuclear Power Station]]></name>
			<Point>
				<coordinates>-82.3438888888889,31.9341666666667,0</coordinates>
			</Point>
			<Snippet></Snippet>
			<description><![CDATA[<br>Source: Wikipedia article <a href="http://en.wikipedia.org/wiki/List_of_nuclear_power_stations#cite_ref-10">List of nuclear power stations</a>]]></description>
		</Placemark>
		<Placemark>
			<name><![CDATA[Enrico Fermi Nuclear Power Station]]></name>
			<Point>
				<coordinates>-83.2575,41.9627777777778,0</coordinates>
			</Point>
			<Snippet></Snippet>
			<description><![CDATA[<br>Source: Wikipedia article <a href="http://en.wikipedia.org/wiki/List_of_nuclear_power_stations#cite_ref-11">List of nuclear power stations</a>]]></description>
		</Placemark>
		<Placemark>
			<name><![CDATA[Emsland Nuclear Power Station]]></name>
			<Point>
				<coordinates>7.31777777777778,52.4741666666667,0</coordinates>
			</Point>
			<Snippet></Snippet>
			<description><![CDATA[<br>Source: Wikipedia article <a href="http://en.wikipedia.org/wiki/List_of_nuclear_power_stations#cite_ref-11">List of nuclear power stations</a>]]></description>
		</Placemark>
		<Placemark>
			<name><![CDATA[Fessenheim Nuclear Power Plant]]></name>
			<Point>
				<coordinates>7.56305555555556,47.9030555555556,0</coordinates>
			</Point>
			<Snippet></Snippet>
			<description><![CDATA[<br>Source: Wikipedia article <a href="http://en.wikipedia.org/wiki/List_of_nuclear_power_stations#cite_ref-11">List of nuclear power stations</a>]]></description>
		</Placemark>
		<Placemark>
			<name><![CDATA[Flamanville Nuclear Power Station]]></name>
			<Point>
				<coordinates>-1.88166666666667,49.5363888888889,0</coordinates>
			</Point>
			<Snippet></Snippet>
			<description><![CDATA[<br>Source: Wikipedia article <a href="http://en.wikipedia.org/wiki/List_of_nuclear_power_stations#cite_ref-12">List of nuclear power stations</a>]]></description>
		</Placemark>
		<Placemark>
			<name><![CDATA[Forsmark Nuclear Power Station]]></name>
			<Point>
				<coordinates>18.1666666666667,60.4033333333333,0</coordinates>
			</Point>
			<Snippet></Snippet>
			<description><![CDATA[<br>Source: Wikipedia article <a href="http://en.wikipedia.org/wiki/List_of_nuclear_power_stations#cite_ref-IndustryCardsNuclearFrance_2-10">List of nuclear power stations</a>]]></description>
		</Placemark>
		<Placemark>
			<name><![CDATA[Fukushima Daini Nuclear Power Plant]]></name>
			<Point>
				<coordinates>141.021111111111,37.3194444444444,0</coordinates>
			</Point>
			<Snippet></Snippet>
			<description><![CDATA[<br>Source: Wikipedia article <a href="http://en.wikipedia.org/wiki/List_of_nuclear_power_stations#cite_ref-IndustryCardsNuclearFrance_2-10">List of nuclear power stations</a>]]></description>
		</Placemark>
		<Placemark>
			<name><![CDATA[Genkai Nuclear Power Station]]></name>
			<Point>
				<coordinates>129.837222222222,33.5155555555556,0</coordinates>
			</Point>
			<Snippet></Snippet>
			<description><![CDATA[<br>Source: Wikipedia article <a href="http://en.wikipedia.org/wiki/List_of_nuclear_power_stations#cite_ref-IndustryCardsNuclearJapan_13-0">List of nuclear power stations</a>]]></description>
		</Placemark>
		<Placemark>
			<name><![CDATA[Goesgen Nuclear Power Station]]></name>
			<Point>
				<coordinates>7.96666666666667,47.3658333333333,0</coordinates>
			</Point>
			<Snippet></Snippet>
			<description><![CDATA[<br>Source: Wikipedia article <a href="http://en.wikipedia.org/wiki/List_of_nuclear_power_stations#cite_ref-Genkai_Nuclear_Power_Plant_14-0">List of nuclear power stations</a>]]></description>
		</Placemark>
		<Placemark>
			<name><![CDATA[Golfech Nuclear Power Station]]></name>
			<Point>
				<coordinates>0.845277777777778,44.1066666666667,0</coordinates>
			</Point>
			<Snippet></Snippet>
			<description><![CDATA[<br>Source: Wikipedia article <a href="http://en.wikipedia.org/wiki/List_of_nuclear_power_stations#cite_ref-Genkai_Nuclear_Power_Plant_14-0">List of nuclear power stations</a>]]></description>
		</Placemark>
		<Placemark>
			<name><![CDATA[Grafenrheinfeld Nuclear Power Station]]></name>
			<Point>
				<coordinates>10.1847222222222,49.9838888888889,0</coordinates>
			</Point>
			<Snippet></Snippet>
			<description><![CDATA[<br>Source: Wikipedia article <a href="http://en.wikipedia.org/wiki/List_of_nuclear_power_stations#cite_ref-IndustryCardsNuclearFrance_2-11">List of nuclear power stations</a>]]></description>
		</Placemark>
		<Placemark>
			<name><![CDATA[Grand Gulf Nuclear Generating Station]]></name>
			<Point>
				<coordinates>-91.0483333333333,32.0066666666667,0</coordinates>
			</Point>
			<Snippet></Snippet>
			<description><![CDATA[<br>Source: Wikipedia article <a href="http://en.wikipedia.org/wiki/List_of_nuclear_power_stations#cite_ref-IndustryCardsNuclearFrance_2-11">List of nuclear power stations</a>]]></description>
		</Placemark>
		<Placemark>
			<name><![CDATA[Gravelines Nuclear Power Station]]></name>
			<Point>
				<coordinates>2.13611111111111,51.0152777777778,0</coordinates>
			</Point>
			<Snippet></Snippet>
			<description><![CDATA[<br>Source: Wikipedia article <a href="http://en.wikipedia.org/wiki/List_of_nuclear_power_stations#cite_ref-IndustryCardsNuclearFrance_2-11">List of nuclear power stations</a>]]></description>
		</Placemark>
		<Placemark>
			<name><![CDATA[Grohnde Nuclear Power Station]]></name>
			<Point>
				<coordinates>9.41333333333333,52.0352777777778,0</coordinates>
			</Point>
			<Snippet></Snippet>
			<description><![CDATA[<br>Source: Wikipedia article <a href="http://en.wikipedia.org/wiki/List_of_nuclear_power_stations#cite_ref-IndustryCardsNuclearFrance_2-12">List of nuclear power stations</a>]]></description>
		</Placemark>
		<Placemark>
			<name><![CDATA[Gundremmingen Nuclear Power Station]]></name>
			<Point>
				<coordinates>10.4022222222222,48.5147222222222,0</coordinates>
			</Point>
			<Snippet></Snippet>
			<description><![CDATA[<br>Source: Wikipedia article <a href="http://en.wikipedia.org/wiki/List_of_nuclear_power_stations#cite_ref-15">List of nuclear power stations</a>]]></description>
		</Placemark>
		<Placemark>
			<name><![CDATA[Hamaoka Nuclear Power Station]]></name>
			<Point>
				<coordinates>138.1425,34.6236111111111,0</coordinates>
			</Point>
			<Snippet></Snippet>
			<description><![CDATA[<br>Source: Wikipedia article <a href="http://en.wikipedia.org/wiki/List_of_nuclear_power_stations#cite_ref-16">List of nuclear power stations</a>]]></description>
		</Placemark>
		<Placemark>
			<name><![CDATA[Hanbit Nuclear Power Plant]]></name>
			<Point>
				<coordinates>126.423888888889,35.415,0</coordinates>
			</Point>
			<Snippet></Snippet>
			<description><![CDATA[<br>Source: Wikipedia article <a href="http://en.wikipedia.org/wiki/List_of_nuclear_power_stations#cite_ref-IndustryCardsNuclearJapan_13-2">List of nuclear power stations</a>]]></description>
		</Placemark>
		<Placemark>
			<name><![CDATA[Hanul Nuclear Power Plant]]></name>
			<Point>
				<coordinates>129.383611111111,37.0927777777778,0</coordinates>
			</Point>
			<Snippet></Snippet>
			<description><![CDATA[<br>Source: Wikipedia article <a href="http://en.wikipedia.org/wiki/List_of_nuclear_power_stations#cite_ref-ko_17-0">List of nuclear power stations</a>]]></description>
		</Placemark>
		<Placemark>
			<name><![CDATA[Hartlepool Nuclear Power Station]]></name>
			<Point>
				<coordinates>-1.18083333333333,54.635,0</coordinates>
			</Point>
			<Snippet></Snippet>
			<description><![CDATA[<br>Source: Wikipedia article <a href="http://en.wikipedia.org/wiki/List_of_nuclear_power_stations#cite_ref-ko_17-1">List of nuclear power stations</a>]]></description>
		</Placemark>
		<Placemark>
			<name><![CDATA[Heysham nuclear power station]]></name>
			<Point>
				<coordinates>-2.91611111111111,54.0288888888889,0</coordinates>
			</Point>
			<Snippet></Snippet>
			<description><![CDATA[<br>Source: Wikipedia article <a href="http://en.wikipedia.org/wiki/List_of_nuclear_power_stations#cite_ref-ko_17-1">List of nuclear power stations</a>]]></description>
		</Placemark>
		<Placemark>
			<name><![CDATA[Higashidōri Nuclear Power Station]]></name>
			<Point>
				<coordinates>141.390277777778,41.1880555555556,0</coordinates>
			</Point>
			<Snippet></Snippet>
			<description><![CDATA[<br>Source: Wikipedia article <a href="http://en.wikipedia.org/wiki/List_of_nuclear_power_stations#cite_ref-ko_17-1">List of nuclear power stations</a>]]></description>
		</Placemark>
		<Placemark>
			<name><![CDATA[Hinkley Point-B Nuclear Power Station]]></name>
			<Point>
				<coordinates>-3.1275,51.2091666666667,0</coordinates>
			</Point>
			<Snippet></Snippet>
			<description><![CDATA[<br>Source: Wikipedia article <a href="http://en.wikipedia.org/wiki/List_of_nuclear_power_stations#cite_ref-IndustryCardsNuclearJapan_13-3">List of nuclear power stations</a>]]></description>
		</Placemark>
		<Placemark>
			<name><![CDATA[Hongyanhe Nuclear Power Plant]]></name>
			<Point>
				<coordinates>121.471944444444,39.7977777777778,0</coordinates>
			</Point>
			<Snippet></Snippet>
			<description><![CDATA[<br>Source: Wikipedia article <a href="http://en.wikipedia.org/wiki/List_of_nuclear_power_stations#cite_ref-18">List of nuclear power stations</a>]]></description>
		</Placemark>
		<Placemark>
			<name><![CDATA[Hope Creek Nuclear Power Station]]></name>
			<Point>
				<coordinates>-75.5380555555556,39.4677777777778,0</coordinates>
			</Point>
			<Snippet></Snippet>
			<description><![CDATA[<br>Source: Wikipedia article <a href="http://en.wikipedia.org/wiki/List_of_nuclear_power_stations#cite_ref-IndustryCardsNuclearChina_8-1">List of nuclear power stations</a>]]></description>
		</Placemark>
		<Placemark>
			<name><![CDATA[Hunterston-B Nuclear Power Station]]></name>
			<Point>
				<coordinates>-4.89,55.7222222222222,0</coordinates>
			</Point>
			<Snippet></Snippet>
			<description><![CDATA[<br>Source: Wikipedia article <a href="http://en.wikipedia.org/wiki/List_of_nuclear_power_stations#cite_ref-IndustryCardsNuclearChina_8-1">List of nuclear power stations</a>]]></description>
		</Placemark>
		<Placemark>
			<name><![CDATA[Ikata Nuclear Power Station]]></name>
			<Point>
				<coordinates>132.311388888889,33.4908333333333,0</coordinates>
			</Point>
			<Snippet></Snippet>
			<description><![CDATA[<br>Source: Wikipedia article <a href="http://en.wikipedia.org/wiki/List_of_nuclear_power_stations#cite_ref-IndustryCardsNuclearChina_8-1">List of nuclear power stations</a>]]></description>
		</Placemark>
		<Placemark>
			<name><![CDATA[Indian Point Energy Center]]></name>
			<Point>
				<coordinates>-73.9522222222222,41.2697222222222,0</coordinates>
			</Point>
			<Snippet></Snippet>
			<description><![CDATA[<br>Source: Wikipedia article <a href="http://en.wikipedia.org/wiki/List_of_nuclear_power_stations#cite_ref-19">List of nuclear power stations</a>]]></description>
		</Placemark>
		<Placemark>
			<name><![CDATA[Isar Nuclear Power Station]]></name>
			<Point>
				<coordinates>12.2930555555556,48.6055555555556,0</coordinates>
			</Point>
			<Snippet></Snippet>
			<description><![CDATA[<br>Source: Wikipedia article <a href="http://en.wikipedia.org/wiki/List_of_nuclear_power_stations#cite_ref-20">List of nuclear power stations</a>]]></description>
		</Placemark>
		<Placemark>
			<name><![CDATA[Joseph Farley Nuclear Power Station]]></name>
			<Point>
				<coordinates>-85.1116666666667,31.2230555555556,0</coordinates>
			</Point>
			<Snippet></Snippet>
			<description><![CDATA[<br>Source: Wikipedia article <a href="http://en.wikipedia.org/wiki/List_of_nuclear_power_stations#cite_ref-20">List of nuclear power stations</a>]]></description>
		</Placemark>
		<Placemark>
			<name><![CDATA[Kalinin Nuclear Power Station]]></name>
			<Point>
				<coordinates>35.0602777777778,57.9055555555556,0</coordinates>
			</Point>
			<Snippet></Snippet>
			<description><![CDATA[<br>Source: Wikipedia article <a href="http://en.wikipedia.org/wiki/List_of_nuclear_power_stations#cite_ref-20">List of nuclear power stations</a>]]></description>
		</Placemark>
		<Placemark>
			<name><![CDATA[Kashiwazaki-Kariwa Nuclear Power Plant]]></name>
			<Point>
				<coordinates>138.595277777778,37.4291666666667,0</coordinates>
			</Point>
			<Snippet></Snippet>
			<description><![CDATA[<br>Source: Wikipedia article <a href="http://en.wikipedia.org/wiki/List_of_nuclear_power_stations#cite_ref-21">List of nuclear power stations</a>]]></description>
		</Placemark>
		<Placemark>
			<name><![CDATA[Khmelnitskiy Nuclear Power Plant]]></name>
			<Point>
				<coordinates>26.6497222222222,50.3013888888889,0</coordinates>
			</Point>
			<Snippet></Snippet>
			<description><![CDATA[<br>Source: Wikipedia article <a href="http://en.wikipedia.org/wiki/List_of_nuclear_power_stations#cite_ref-23">List of nuclear power stations</a>]]></description>
		</Placemark>
		<Placemark>
			<name><![CDATA[Koeberg Nuclear Power Station]]></name>
			<Point>
				<coordinates>18.4319444444444,-33.6763888888889,0</coordinates>
			</Point>
			<Snippet></Snippet>
			<description><![CDATA[<br>Source: Wikipedia article <a href="http://en.wikipedia.org/wiki/List_of_nuclear_power_stations#cite_ref-23">List of nuclear power stations</a>]]></description>
		</Placemark>
		<Placemark>
			<name><![CDATA[Kola Nuclear Power Station]]></name>
			<Point>
				<coordinates>32.4666666666667,67.4666666666667,0</coordinates>
			</Point>
			<Snippet></Snippet>
			<description><![CDATA[<br>Source: Wikipedia article <a href="http://en.wikipedia.org/wiki/List_of_nuclear_power_stations#cite_ref-23">List of nuclear power stations</a>]]></description>
		</Placemark>
		<Placemark>
			<name><![CDATA[Kori Nuclear Power Station]]></name>
			<Point>
				<coordinates>129.3,35.3169444444444,0</coordinates>
			</Point>
			<Snippet></Snippet>
			<description><![CDATA[<br>Source: Wikipedia article <a href="http://en.wikipedia.org/wiki/List_of_nuclear_power_stations#cite_ref-23">List of nuclear power stations</a>]]></description>
		</Placemark>
		<Placemark>
			<name><![CDATA[Kozloduy Nuclear Power Station]]></name>
			<Point>
				<coordinates>23.7705555555556,43.7461111111111,0</coordinates>
			</Point>
			<Snippet></Snippet>
			<description><![CDATA[<br>Source: Wikipedia article <a href="http://en.wikipedia.org/wiki/List_of_nuclear_power_stations#cite_ref-24">List of nuclear power stations</a>]]></description>
		</Placemark>
		<Placemark>
			<name><![CDATA[Kuosheng Nuclear Power Plant]]></name>
			<Point>
				<coordinates>121.662777777778,25.2030555555556,0</coordinates>
			</Point>
			<Snippet></Snippet>
			<description><![CDATA[<br>Source: Wikipedia article <a href="http://en.wikipedia.org/wiki/List_of_nuclear_power_stations#cite_ref-24">List of nuclear power stations</a>]]></description>
		</Placemark>
		<Placemark>
			<name><![CDATA[Koodankulam Nuclear Power Plant]]></name>
			<Point>
				<coordinates>77.7125,8.16833333333333,0</coordinates>
			</Point>
			<Snippet></Snippet>
			<description><![CDATA[<br>Source: Wikipedia article <a href="http://en.wikipedia.org/wiki/List_of_nuclear_power_stations#cite_ref-25">List of nuclear power stations</a>]]></description>
		</Placemark>
		<Placemark>
			<name><![CDATA[Kursk Nuclear Power Station]]></name>
			<Point>
				<coordinates>35.6055555555556,51.675,0</coordinates>
			</Point>
			<Snippet></Snippet>
			<description><![CDATA[<br>Source: Wikipedia article <a href="http://en.wikipedia.org/wiki/List_of_nuclear_power_stations#cite_ref-26">List of nuclear power stations</a>]]></description>
		</Placemark>
		<Placemark>
			<name><![CDATA[Laguna Verde Nuclear Power Station]]></name>
			<Point>
				<coordinates>-96.4063888888889,19.7208333333333,0</coordinates>
			</Point>
			<Snippet></Snippet>
			<description><![CDATA[<br>Source: Wikipedia article <a href="http://en.wikipedia.org/wiki/List_of_nuclear_power_stations#cite_ref-26">List of nuclear power stations</a>]]></description>
		</Placemark>
		<Placemark>
			<name><![CDATA[LaSalle County Nuclear Generating Station]]></name>
			<Point>
				<coordinates>-88.6691666666667,41.2455555555556,0</coordinates>
			</Point>
			<Snippet></Snippet>
			<description><![CDATA[<br>Source: Wikipedia article <a href="http://en.wikipedia.org/wiki/List_of_nuclear_power_stations#cite_ref-26">List of nuclear power stations</a>]]></description>
		</Placemark>
		<Placemark>
			<name><![CDATA[Leibstadt Nuclear Power Station]]></name>
			<Point>
				<coordinates>8.18472222222222,47.6030555555556,0</coordinates>
			</Point>
			<Snippet></Snippet>
			<description><![CDATA[<br>Source: Wikipedia article <a href="http://en.wikipedia.org/wiki/List_of_nuclear_power_stations#cite_ref-26">List of nuclear power stations</a>]]></description>
		</Placemark>
		<Placemark>
			<name><![CDATA[Lemoniz Nuclear Power Station]]></name>
			<Point>
				<coordinates>-2.8725,43.4333333333333,0</coordinates>
			</Point>
			<Snippet></Snippet>
			<description><![CDATA[<br>Source: Wikipedia article <a href="http://en.wikipedia.org/wiki/List_of_nuclear_power_stations#cite_ref-26">List of nuclear power stations</a>]]></description>
		</Placemark>
		<Placemark>
			<name><![CDATA[Leningrad Nuclear Power Station]]></name>
			<Point>
				<coordinates>29.0436111111111,59.8472222222222,0</coordinates>
			</Point>
			<Snippet></Snippet>
			<description><![CDATA[<br>Source: Wikipedia article <a href="http://en.wikipedia.org/wiki/List_of_nuclear_power_stations#cite_ref-26">List of nuclear power stations</a>]]></description>
		</Placemark>
		<Placemark>
			<name><![CDATA[Limerick Nuclear Power Plant]]></name>
			<Point>
				<coordinates>-75.5872222222222,40.2266666666667,0</coordinates>
			</Point>
			<Snippet></Snippet>
			<description><![CDATA[<br>Source: Wikipedia article <a href="http://en.wikipedia.org/wiki/List_of_nuclear_power_stations#cite_ref-26">List of nuclear power stations</a>]]></description>
		</Placemark>
		<Placemark>
			<name><![CDATA[Ling Ao Nuclear Power Plant]]></name>
			<Point>
				<coordinates>114.551388888889,22.6047222222222,0</coordinates>
			</Point>
			<Snippet></Snippet>
			<description><![CDATA[<br>Source: Wikipedia article <a href="http://en.wikipedia.org/wiki/List_of_nuclear_power_stations#cite_ref-26">List of nuclear power stations</a>]]></description>
		</Placemark>
		<Placemark>
			<name><![CDATA[Loviisa Nuclear Power Station]]></name>
			<Point>
				<coordinates>26.3472222222222,60.3722222222222,0</coordinates>
			</Point>
			<Snippet></Snippet>
			<description><![CDATA[<br>Source: Wikipedia article <a href="http://en.wikipedia.org/wiki/List_of_nuclear_power_stations#cite_ref-IndustryCardsNuclearChina_8-2">List of nuclear power stations</a>]]></description>
		</Placemark>
		<Placemark>
			<name><![CDATA[McGuire Nuclear Station]]></name>
			<Point>
				<coordinates>-80.9483333333333,35.4325,0</coordinates>
			</Point>
			<Snippet></Snippet>
			<description><![CDATA[<br>Source: Wikipedia article <a href="http://en.wikipedia.org/wiki/List_of_nuclear_power_stations#cite_ref-IndustryCardsNuclearChina_8-2">List of nuclear power stations</a>]]></description>
		</Placemark>
		<Placemark>
			<name><![CDATA[Maanshan Nuclear Power Plant]]></name>
			<Point>
				<coordinates>120.751666666667,21.9580555555556,0</coordinates>
			</Point>
			<Snippet></Snippet>
			<description><![CDATA[<br>Source: Wikipedia article <a href="http://en.wikipedia.org/wiki/List_of_nuclear_power_stations#cite_ref-IndustryCardsNuclearChina_8-2">List of nuclear power stations</a>]]></description>
		</Placemark>
		<Placemark>
			<name><![CDATA[Mihama Nuclear Power Station]]></name>
			<Point>
				<coordinates>135.963333333333,35.7025,0</coordinates>
			</Point>
			<Snippet></Snippet>
			<description><![CDATA[<br>Source: Wikipedia article <a href="http://en.wikipedia.org/wiki/List_of_nuclear_power_stations#cite_ref-tai_6-2">List of nuclear power stations</a>]]></description>
		</Placemark>
		<Placemark>
			<name><![CDATA[Millstone Nuclear Power Station]]></name>
			<Point>
				<coordinates>-72.1686111111111,41.3119444444444,0</coordinates>
			</Point>
			<Snippet></Snippet>
			<description><![CDATA[<br>Source: Wikipedia article <a href="http://en.wikipedia.org/wiki/List_of_nuclear_power_stations#cite_ref-27">List of nuclear power stations</a>]]></description>
		</Placemark>
		<Placemark>
			<name><![CDATA[Neckarwestheim Nuclear Power Station]]></name>
			<Point>
				<coordinates>9.175,49.0416666666667,0</coordinates>
			</Point>
			<Snippet></Snippet>
			<description><![CDATA[<br>Source: Wikipedia article <a href="http://en.wikipedia.org/wiki/List_of_nuclear_power_stations#cite_ref-28">List of nuclear power stations</a>]]></description>
		</Placemark>
		<Placemark>
			<name><![CDATA[Nine Mile Point Nuclear Power Station]]></name>
			<Point>
				<coordinates>-76.4069444444444,43.5208333333333,0</coordinates>
			</Point>
			<Snippet></Snippet>
			<description><![CDATA[<br>Source: Wikipedia article <a href="http://en.wikipedia.org/wiki/List_of_nuclear_power_stations#cite_ref-28">List of nuclear power stations</a>]]></description>
		</Placemark>
		<Placemark>
			<name><![CDATA[Ningde Nuclear Power Plant]]></name>
			<Point>
				<coordinates>120.288333333333,27.0461111111111,0</coordinates>
			</Point>
			<Snippet></Snippet>
			<description><![CDATA[<br>Source: Wikipedia article <a href="http://en.wikipedia.org/wiki/List_of_nuclear_power_stations#cite_ref-29">List of nuclear power stations</a>]]></description>
		</Placemark>
		<Placemark>
			<name><![CDATA[Nogent Nuclear Power Station]]></name>
			<Point>
				<coordinates>3.51777777777778,48.5152777777778,0</coordinates>
			</Point>
			<Snippet></Snippet>
			<description><![CDATA[<br>Source: Wikipedia article <a href="http://en.wikipedia.org/wiki/List_of_nuclear_power_stations#cite_ref-IndustryCardsNuclearChina_8-3">List of nuclear power stations</a>]]></description>
		</Placemark>
		<Placemark>
			<name><![CDATA[North Anna Nuclear Power Station]]></name>
			<Point>
				<coordinates>-77.7894444444444,38.0605555555556,0</coordinates>
			</Point>
			<Snippet></Snippet>
			<description><![CDATA[<br>Source: Wikipedia article <a href="http://en.wikipedia.org/wiki/List_of_nuclear_power_stations#cite_ref-IndustryCardsNuclearFrance_2-13">List of nuclear power stations</a>]]></description>
		</Placemark>
		<Placemark>
			<name><![CDATA[Novovoronezhskaya Nuclear Power Station]]></name>
			<Point>
				<coordinates>39.2,51.275,0</coordinates>
			</Point>
			<Snippet></Snippet>
			<description><![CDATA[<br>Source: Wikipedia article <a href="http://en.wikipedia.org/wiki/List_of_nuclear_power_stations#cite_ref-30">List of nuclear power stations</a>]]></description>
		</Placemark>
		<Placemark>
			<name><![CDATA[Oconee Nuclear Power Station]]></name>
			<Point>
				<coordinates>-82.8980555555556,34.7938888888889,0</coordinates>
			</Point>
			<Snippet></Snippet>
			<description><![CDATA[<br>Source: Wikipedia article <a href="http://en.wikipedia.org/wiki/List_of_nuclear_power_stations#cite_ref-30">List of nuclear power stations</a>]]></description>
		</Placemark>
		<Placemark>
			<name><![CDATA[Ōi Nuclear Power Station]]></name>
			<Point>
				<coordinates>135.651944444444,35.5405555555556,0</coordinates>
			</Point>
			<Snippet></Snippet>
			<description><![CDATA[<br>Source: Wikipedia article <a href="http://en.wikipedia.org/wiki/List_of_nuclear_power_stations#cite_ref-30">List of nuclear power stations</a>]]></description>
		</Placemark>
		<Placemark>
			<name><![CDATA[Olkiluoto Nuclear Power Station]]></name>
			<Point>
				<coordinates>21.4408333333333,61.2369444444444,0</coordinates>
			</Point>
			<Snippet></Snippet>
			<description><![CDATA[<br>Source: Wikipedia article <a href="http://en.wikipedia.org/wiki/List_of_nuclear_power_stations#cite_ref-31">List of nuclear power stations</a>]]></description>
		</Placemark>
		<Placemark>
			<name><![CDATA[Onagawa Nuclear Power Station]]></name>
			<Point>
				<coordinates>141.499722222222,38.4011111111111,0</coordinates>
			</Point>
			<Snippet></Snippet>
			<description><![CDATA[<br>Source: Wikipedia article <a href="http://en.wikipedia.org/wiki/List_of_nuclear_power_stations#cite_ref-31">List of nuclear power stations</a>]]></description>
		</Placemark>
		<Placemark>
			<name><![CDATA[Oskarshamn Nuclear Power Station]]></name>
			<Point>
				<coordinates>16.6711111111111,57.4155555555556,0</coordinates>
			</Point>
			<Snippet></Snippet>
			<description><![CDATA[<br>Source: Wikipedia article <a href="http://en.wikipedia.org/wiki/List_of_nuclear_power_stations#cite_ref-IndustryCardsNuclearJapan_13-8">List of nuclear power stations</a>]]></description>
		</Placemark>
		<Placemark>
			<name><![CDATA[Paks Nuclear Power Station]]></name>
			<Point>
				<coordinates>18.8541666666667,46.5725,0</coordinates>
			</Point>
			<Snippet></Snippet>
			<description><![CDATA[<br>Source: Wikipedia article <a href="http://en.wikipedia.org/wiki/List_of_nuclear_power_stations#cite_ref-IndustryCardsNuclearJapan_13-8">List of nuclear power stations</a>]]></description>
		</Placemark>
		<Placemark>
			<name><![CDATA[Palo Verde Nuclear Power Station]]></name>
			<Point>
				<coordinates>-112.865,33.3891666666667,0</coordinates>
			</Point>
			<Snippet></Snippet>
			<description><![CDATA[<br>Source: Wikipedia article <a href="http://en.wikipedia.org/wiki/List_of_nuclear_power_stations#cite_ref-IndustryCardsNuclearJapan_13-8">List of nuclear power stations</a>]]></description>
		</Placemark>
		<Placemark>
			<name><![CDATA[Paluel Nuclear Power Plant]]></name>
			<Point>
				<coordinates>0.635555555555556,49.8580555555556,0</coordinates>
			</Point>
			<Snippet></Snippet>
			<description><![CDATA[<br>Source: Wikipedia article <a href="http://en.wikipedia.org/wiki/List_of_nuclear_power_stations#cite_ref-IndustryCardsNuclearJapan_13-8">List of nuclear power stations</a>]]></description>
		</Placemark>
		<Placemark>
			<name><![CDATA[Penly Nuclear Power Station]]></name>
			<Point>
				<coordinates>1.21194444444444,49.9766666666667,0</coordinates>
			</Point>
			<Snippet></Snippet>
			<description><![CDATA[<br>Source: Wikipedia article <a href="http://en.wikipedia.org/wiki/List_of_nuclear_power_stations#cite_ref-IndustryCardsNuclearFrance_2-14">List of nuclear power stations</a>]]></description>
		</Placemark>
		<Placemark>
			<name><![CDATA[Peach Bottom Nuclear Generating Station]]></name>
			<Point>
				<coordinates>-76.2680555555555,39.7583333333333,0</coordinates>
			</Point>
			<Snippet></Snippet>
			<description><![CDATA[<br>Source: Wikipedia article <a href="http://en.wikipedia.org/wiki/List_of_nuclear_power_stations#cite_ref-32">List of nuclear power stations</a>]]></description>
		</Placemark>
		<Placemark>
			<name><![CDATA[Perry Nuclear Power Station]]></name>
			<Point>
				<coordinates>-81.1433333333333,41.8008333333333,0</coordinates>
			</Point>
			<Snippet></Snippet>
			<description><![CDATA[<br>Source: Wikipedia article <a href="http://en.wikipedia.org/wiki/List_of_nuclear_power_stations#cite_ref-32">List of nuclear power stations</a>]]></description>
		</Placemark>
		<Placemark>
			<name><![CDATA[Philippsburg Nuclear Power Station]]></name>
			<Point>
				<coordinates>8.43638888888889,49.2525,0</coordinates>
			</Point>
			<Snippet></Snippet>
			<description><![CDATA[<br>Source: Wikipedia article <a href="http://en.wikipedia.org/wiki/List_of_nuclear_power_stations#cite_ref-33">List of nuclear power stations</a>]]></description>
		</Placemark>
		<Placemark>
			<name><![CDATA[Pickering Nuclear Generating Station]]></name>
			<Point>
				<coordinates>-79.0658333333333,43.8116666666667,0</coordinates>
			</Point>
			<Snippet></Snippet>
			<description><![CDATA[<br>Source: Wikipedia article <a href="http://en.wikipedia.org/wiki/List_of_nuclear_power_stations#cite_ref-34">List of nuclear power stations</a>]]></description>
		</Placemark>
		<Placemark>
			<name><![CDATA[Point Beach Nuclear Plant]]></name>
			<Point>
				<coordinates>-87.5366666666667,44.2811111111111,0</coordinates>
			</Point>
			<Snippet></Snippet>
			<description><![CDATA[<br>Source: Wikipedia article <a href="http://en.wikipedia.org/wiki/List_of_nuclear_power_stations#cite_ref-34">List of nuclear power stations</a>]]></description>
		</Placemark>
		<Placemark>
			<name><![CDATA[Prairie Island Nuclear Power Station]]></name>
			<Point>
				<coordinates>-92.6330555555555,44.6216666666667,0</coordinates>
			</Point>
			<Snippet></Snippet>
			<description><![CDATA[<br>Source: Wikipedia article <a href="http://en.wikipedia.org/wiki/List_of_nuclear_power_stations#cite_ref-34">List of nuclear power stations</a>]]></description>
		</Placemark>
		<Placemark>
			<name><![CDATA[Qinshan Nuclear Power Station]]></name>
			<Point>
				<coordinates>120.956388888889,30.4355555555556,0</coordinates>
			</Point>
			<Snippet></Snippet>
			<description><![CDATA[<br>Source: Wikipedia article <a href="http://en.wikipedia.org/wiki/List_of_nuclear_power_stations#cite_ref-34">List of nuclear power stations</a>]]></description>
		</Placemark>
		<Placemark>
			<name><![CDATA[Quad Cities Nuclear Power Station]]></name>
			<Point>
				<coordinates>-90.31,41.7263888888889,0</coordinates>
			</Point>
			<Snippet></Snippet>
			<description><![CDATA[<br>Source: Wikipedia article <a href="http://en.wikipedia.org/wiki/List_of_nuclear_power_stations#cite_ref-35">List of nuclear power stations</a>]]></description>
		</Placemark>
		<Placemark>
			<name><![CDATA[Rajasthan Atomic Power Station]]></name>
			<Point>
				<coordinates>75.6138888888889,24.8722222222222,0</coordinates>
			</Point>
			<Snippet></Snippet>
			<description><![CDATA[<br>Source: Wikipedia article <a href="http://en.wikipedia.org/wiki/List_of_nuclear_power_stations#cite_ref-36">List of nuclear power stations</a>]]></description>
		</Placemark>
		<Placemark>
			<name><![CDATA[Ringhals Nuclear Power Station]]></name>
			<Point>
				<coordinates>12.1108333333333,57.2597222222222,0</coordinates>
			</Point>
			<Snippet></Snippet>
			<description><![CDATA[<br>Source: Wikipedia article <a href="http://en.wikipedia.org/wiki/List_of_nuclear_power_stations#cite_ref-36">List of nuclear power stations</a>]]></description>
		</Placemark>
		<Placemark>
			<name><![CDATA[Rivne Nuclear Power Station]]></name>
			<Point>
				<coordinates>25.8916666666667,51.3277777777778,0</coordinates>
			</Point>
			<Snippet></Snippet>
			<description><![CDATA[<br>Source: Wikipedia article <a href="http://en.wikipedia.org/wiki/List_of_nuclear_power_stations#cite_ref-36">List of nuclear power stations</a>]]></description>
		</Placemark>
		<Placemark>
			<name><![CDATA[Rostov Nuclear Power Plant]]></name>
			<Point>
				<coordinates>42.3719444444444,47.5994444444444,0</coordinates>
			</Point>
			<Snippet></Snippet>
			<description><![CDATA[<br>Source: Wikipedia article <a href="http://en.wikipedia.org/wiki/List_of_nuclear_power_stations#cite_ref-37">List of nuclear power stations</a>]]></description>
		</Placemark>
		<Placemark>
			<name><![CDATA[Saint-Alban Nuclear Power Station]]></name>
			<Point>
				<coordinates>4.75444444444444,45.4044444444444,0</coordinates>
			</Point>
			<Snippet></Snippet>
			<description><![CDATA[<br>Source: Wikipedia article <a href="http://en.wikipedia.org/wiki/List_of_nuclear_power_stations#cite_ref-37">List of nuclear power stations</a>]]></description>
		</Placemark>
		<Placemark>
			<name><![CDATA[Saint-Laurent Nuclear Power Station]]></name>
			<Point>
				<coordinates>1.5775,47.72,0</coordinates>
			</Point>
			<Snippet></Snippet>
			<description><![CDATA[<br>Source: Wikipedia article <a href="http://en.wikipedia.org/wiki/List_of_nuclear_power_stations#cite_ref-39">List of nuclear power stations</a>]]></description>
		</Placemark>
		<Placemark>
			<name><![CDATA[Saint Lucie Nuclear Power Station]]></name>
			<Point>
				<coordinates>-80.2463888888889,27.3486111111111,0</coordinates>
			</Point>
			<Snippet></Snippet>
			<description><![CDATA[<br>Source: Wikipedia article <a href="http://en.wikipedia.org/wiki/List_of_nuclear_power_stations#cite_ref-IndustryCardsNuclearFrance_2-17">List of nuclear power stations</a>]]></description>
		</Placemark>
		<Placemark>
			<name><![CDATA[Salem Nuclear Power Station]]></name>
			<Point>
				<coordinates>-75.5355555555555,39.4627777777778,0</coordinates>
			</Point>
			<Snippet></Snippet>
			<description><![CDATA[<br>Source: Wikipedia article <a href="http://en.wikipedia.org/wiki/List_of_nuclear_power_stations#cite_ref-IndustryCardsNuclearFrance_2-17">List of nuclear power stations</a>]]></description>
		</Placemark>
		<Placemark>
			<name><![CDATA[Seabrook Station Nuclear Power Station]]></name>
			<Point>
				<coordinates>-70.8508333333333,42.8988888888889,0</coordinates>
			</Point>
			<Snippet></Snippet>
			<description><![CDATA[<br>Source: Wikipedia article <a href="http://en.wikipedia.org/wiki/List_of_nuclear_power_stations#cite_ref-IndustryCardsNuclearFrance_2-17">List of nuclear power stations</a>]]></description>
		</Placemark>
		<Placemark>
			<name><![CDATA[Sendai Nuclear Power Station]]></name>
			<Point>
				<coordinates>130.189722222222,31.8336111111111,0</coordinates>
			</Point>
			<Snippet></Snippet>
			<description><![CDATA[<br>Source: Wikipedia article <a href="http://en.wikipedia.org/wiki/List_of_nuclear_power_stations#cite_ref-IndustryCardsNuclearFrance_2-17">List of nuclear power stations</a>]]></description>
		</Placemark>
		<Placemark>
			<name><![CDATA[Sequoyah Nuclear Power Station]]></name>
			<Point>
				<coordinates>-85.0916666666667,35.2263888888889,0</coordinates>
			</Point>
			<Snippet></Snippet>
			<description><![CDATA[<br>Source: Wikipedia article <a href="http://en.wikipedia.org/wiki/List_of_nuclear_power_stations#cite_ref-IndustryCardsNuclearJapan_13-9">List of nuclear power stations</a>]]></description>
		</Placemark>
		<Placemark>
			<name><![CDATA[Shika Nuclear Power Station]]></name>
			<Point>
				<coordinates>136.726388888889,37.0611111111111,0</coordinates>
			</Point>
			<Snippet></Snippet>
			<description><![CDATA[<br>Source: Wikipedia article <a href="http://en.wikipedia.org/wiki/List_of_nuclear_power_stations#cite_ref-IndustryCardsNuclearJapan_13-9">List of nuclear power stations</a>]]></description>
		</Placemark>
		<Placemark>
			<name><![CDATA[Shimane Nuclear Power Station]]></name>
			<Point>
				<coordinates>132.999166666667,35.5383333333333,0</coordinates>
			</Point>
			<Snippet></Snippet>
			<description><![CDATA[<br>Source: Wikipedia article <a href="http://en.wikipedia.org/wiki/List_of_nuclear_power_stations#cite_ref-40">List of nuclear power stations</a>]]></description>
		</Placemark>
		<Placemark>
			<name><![CDATA[Shin Kori Nuclear Power Station]]></name>
			<Point>
				<coordinates>129.296388888889,35.32,0</coordinates>
			</Point>
			<Snippet></Snippet>
			<description><![CDATA[<br>Source: Wikipedia article <a href="http://en.wikipedia.org/wiki/List_of_nuclear_power_stations#cite_ref-41">List of nuclear power stations</a>]]></description>
		</Placemark>
		<Placemark>
			<name><![CDATA[Sizewell-B Nuclear Power Station]]></name>
			<Point>
				<coordinates>1.61861111111111,52.2133333333333,0</coordinates>
			</Point>
			<Snippet></Snippet>
			<description><![CDATA[<br>Source: Wikipedia article <a href="http://en.wikipedia.org/wiki/List_of_nuclear_power_stations#cite_ref-41">List of nuclear power stations</a>]]></description>
		</Placemark>
		<Placemark>
			<name><![CDATA[Smolensk Nuclear Power Station]]></name>
			<Point>
				<coordinates>33.2466666666667,54.1691666666667,0</coordinates>
			</Point>
			<Snippet></Snippet>
			<description><![CDATA[<br>Source: Wikipedia article <a href="http://en.wikipedia.org/wiki/List_of_nuclear_power_stations#cite_ref-41">List of nuclear power stations</a>]]></description>
		</Placemark>
		<Placemark>
			<name><![CDATA[South Texas Nuclear Power Station]]></name>
			<Point>
				<coordinates>-96.0488888888889,28.7955555555556,0</coordinates>
			</Point>
			<Snippet></Snippet>
			<description><![CDATA[<br>Source: Wikipedia article <a href="http://en.wikipedia.org/wiki/List_of_nuclear_power_stations#cite_ref-41">List of nuclear power stations</a>]]></description>
		</Placemark>
		<Placemark>
			<name><![CDATA[South Ukraine Nuclear Power Station]]></name>
			<Point>
				<coordinates>31.2166666666667,47.8166666666667,0</coordinates>
			</Point>
			<Snippet></Snippet>
			<description><![CDATA[<br>Source: Wikipedia article <a href="http://en.wikipedia.org/wiki/List_of_nuclear_power_stations#cite_ref-41">List of nuclear power stations</a>]]></description>
		</Placemark>
		<Placemark>
			<name><![CDATA[Surry Nuclear Power Station]]></name>
			<Point>
				<coordinates>-76.6977777777778,37.1655555555556,0</coordinates>
			</Point>
			<Snippet></Snippet>
			<description><![CDATA[<br>Source: Wikipedia article <a href="http://en.wikipedia.org/wiki/List_of_nuclear_power_stations#cite_ref-41">List of nuclear power stations</a>]]></description>
		</Placemark>
		<Placemark>
			<name><![CDATA[Susquehanna Nuclear Power Station]]></name>
			<Point>
				<coordinates>-76.1488888888889,41.0888888888889,0</coordinates>
			</Point>
			<Snippet></Snippet>
			<description><![CDATA[<br>Source: Wikipedia article <a href="http://en.wikipedia.org/wiki/List_of_nuclear_power_stations#cite_ref-41">List of nuclear power stations</a>]]></description>
		</Placemark>
		<Placemark>
			<name><![CDATA[Takahama Nuclear Power Station]]></name>
			<Point>
				<coordinates>135.504722222222,35.5222222222222,0</coordinates>
			</Point>
			<Snippet></Snippet>
			<description><![CDATA[<br>Source: Wikipedia article <a href="http://en.wikipedia.org/wiki/List_of_nuclear_power_stations#cite_ref-41">List of nuclear power stations</a>]]></description>
		</Placemark>
		<Placemark>
			<name><![CDATA[Tarapur Nuclear Power Station]]></name>
			<Point>
				<coordinates>72.6611111111111,19.8277777777778,0</coordinates>
			</Point>
			<Snippet></Snippet>
			<description><![CDATA[<br>Source: Wikipedia article <a href="http://en.wikipedia.org/wiki/List_of_nuclear_power_stations#cite_ref-IndustryCardsNuclearJapan_13-11">List of nuclear power stations</a>]]></description>
		</Placemark>
		<Placemark>
			<name><![CDATA[Temelin Nuclear Power Station]]></name>
			<Point>
				<coordinates>14.3761111111111,49.18,0</coordinates>
			</Point>
			<Snippet></Snippet>
			<description><![CDATA[<br>Source: Wikipedia article <a href="http://en.wikipedia.org/wiki/List_of_nuclear_power_stations#cite_ref-IndustryCardsNuclearJapan_13-11">List of nuclear power stations</a>]]></description>
		</Placemark>
		<Placemark>
			<name><![CDATA[Tianwan Nuclear Power Station]]></name>
			<Point>
				<coordinates>119.459722222222,34.6869444444444,0</coordinates>
			</Point>
			<Snippet></Snippet>
			<description><![CDATA[<br>Source: Wikipedia article <a href="http://en.wikipedia.org/wiki/List_of_nuclear_power_stations#cite_ref-42">List of nuclear power stations</a>]]></description>
		</Placemark>
		<Placemark>
			<name><![CDATA[Tihange Nuclear Power Station]]></name>
			<Point>
				<coordinates>5.2725,50.5347222222222,0</coordinates>
			</Point>
			<Snippet></Snippet>
			<description><![CDATA[<br>Source: Wikipedia article <a href="http://en.wikipedia.org/wiki/List_of_nuclear_power_stations#cite_ref-43">List of nuclear power stations</a>]]></description>
		</Placemark>
		<Placemark>
			<name><![CDATA[Tokai Nuclear Power Station]]></name>
			<Point>
				<coordinates>140.606666666667,36.4663888888889,0</coordinates>
			</Point>
			<Snippet></Snippet>
			<description><![CDATA[<br>Source: Wikipedia article <a href="http://en.wikipedia.org/wiki/List_of_nuclear_power_stations#cite_ref-44">List of nuclear power stations</a>]]></description>
		</Placemark>
		<Placemark>
			<name><![CDATA[Tomari Nuclear Power Station]]></name>
			<Point>
				<coordinates>140.5125,43.0361111111111,0</coordinates>
			</Point>
			<Snippet></Snippet>
			<description><![CDATA[<br>Source: Wikipedia article <a href="http://en.wikipedia.org/wiki/List_of_nuclear_power_stations#cite_ref-IndustryCardsNuclearJapan_13-12">List of nuclear power stations</a>]]></description>
		</Placemark>
		<Placemark>
			<name><![CDATA[Torness Nuclear Power Station]]></name>
			<Point>
				<coordinates>-2.40916666666667,55.9680555555556,0</coordinates>
			</Point>
			<Snippet></Snippet>
			<description><![CDATA[<br>Source: Wikipedia article <a href="http://en.wikipedia.org/wiki/List_of_nuclear_power_stations#cite_ref-IndustryCardsNuclearJapan_13-13">List of nuclear power stations</a>]]></description>
		</Placemark>
		<Placemark>
			<name><![CDATA[Tricastin Nuclear Power Station]]></name>
			<Point>
				<coordinates>4.73222222222222,44.3297222222222,0</coordinates>
			</Point>
			<Snippet></Snippet>
			<description><![CDATA[<br>Source: Wikipedia article <a href="http://en.wikipedia.org/wiki/List_of_nuclear_power_stations#cite_ref-IndustryCardsNuclearJapan_13-13">List of nuclear power stations</a>]]></description>
		</Placemark>
		<Placemark>
			<name><![CDATA[Trillo Nuclear Power Station]]></name>
			<Point>
				<coordinates>-2.62194444444444,40.7011111111111,0</coordinates>
			</Point>
			<Snippet></Snippet>
			<description><![CDATA[<br>Source: Wikipedia article <a href="http://en.wikipedia.org/wiki/List_of_nuclear_power_stations#cite_ref-IndustryCardsNuclearFrance_2-18">List of nuclear power stations</a>]]></description>
		</Placemark>
		<Placemark>
			<name><![CDATA[Tsuruga Nuclear Power Station]]></name>
			<Point>
				<coordinates>136.077222222222,35.6727777777778,0</coordinates>
			</Point>
			<Snippet></Snippet>
			<description><![CDATA[<br>Source: Wikipedia article <a href="http://en.wikipedia.org/wiki/List_of_nuclear_power_stations#cite_ref-IndustryCardsNuclearFrance_2-18">List of nuclear power stations</a>]]></description>
		</Placemark>
		<Placemark>
			<name><![CDATA[Turkey Point Nuclear Generating Station]]></name>
			<Point>
				<coordinates>-80.3305555555555,25.4341666666667,0</coordinates>
			</Point>
			<Snippet></Snippet>
			<description><![CDATA[<br>Source: Wikipedia article <a href="http://en.wikipedia.org/wiki/List_of_nuclear_power_stations#cite_ref-IndustryCardsNuclearJapan_13-14">List of nuclear power stations</a>]]></description>
		</Placemark>
		<Placemark>
			<name><![CDATA[Vandellos Nuclear Power Station]]></name>
			<Point>
				<coordinates>0.866666666666667,40.9513888888889,0</coordinates>
			</Point>
			<Snippet></Snippet>
			<description><![CDATA[<br>Source: Wikipedia article <a href="http://en.wikipedia.org/wiki/List_of_nuclear_power_stations#cite_ref-45">List of nuclear power stations</a>]]></description>
		</Placemark>
		<Placemark>
			<name><![CDATA[Vogtle Nuclear Power Station]]></name>
			<Point>
				<coordinates>-81.7658333333333,33.1430555555556,0</coordinates>
			</Point>
			<Snippet></Snippet>
			<description><![CDATA[<br>Source: Wikipedia article <a href="http://en.wikipedia.org/wiki/List_of_nuclear_power_stations#cite_ref-46">List of nuclear power stations</a>]]></description>
		</Placemark>
		<Placemark>
			<name><![CDATA[Waterford Nuclear Power Station]]></name>
			<Point>
				<coordinates>-90.4711111111111,29.9952777777778,0</coordinates>
			</Point>
			<Snippet></Snippet>
			<description><![CDATA[<br>Source: Wikipedia article <a href="http://en.wikipedia.org/wiki/List_of_nuclear_power_stations#cite_ref-46">List of nuclear power stations</a>]]></description>
		</Placemark>
		<Placemark>
			<name><![CDATA[Watts Bar Nuclear Generating Station]]></name>
			<Point>
				<coordinates>-84.7894444444444,35.6027777777778,0</coordinates>
			</Point>
			<Snippet></Snippet>
			<description><![CDATA[<br>Source: Wikipedia article <a href="http://en.wikipedia.org/wiki/List_of_nuclear_power_stations#cite_ref-47">List of nuclear power stations</a>]]></description>
		</Placemark>
		<Placemark>
			<name><![CDATA[Wolf Creek Power Station]]></name>
			<Point>
				<coordinates>-95.6888888888889,38.2388888888889,0</coordinates>
			</Point>
			<Snippet></Snippet>
			<description><![CDATA[<br>Source: Wikipedia article <a href="http://en.wikipedia.org/wiki/List_of_nuclear_power_stations#cite_ref-47">List of nuclear power stations</a>]]></description>
		</Placemark>
		<Placemark>
			<name><![CDATA[Wolseong Nuclear Power Station]]></name>
			<Point>
				<coordinates>129.475,35.7111111111111,0</coordinates>
			</Point>
			<Snippet></Snippet>
			<description><![CDATA[<br>Source: Wikipedia article <a href="http://en.wikipedia.org/wiki/List_of_nuclear_power_stations#cite_ref-47">List of nuclear power stations</a>]]></description>
		</Placemark>
		<Placemark>
			<name><![CDATA[Yangjiang Nuclear Power Plant]]></name>
			<Point>
				<coordinates>112.260555555556,21.7097222222222,0</coordinates>
			</Point>
			<Snippet></Snippet>
			<description><![CDATA[<br>Source: Wikipedia article <a href="http://en.wikipedia.org/wiki/List_of_nuclear_power_stations#cite_ref-48">List of nuclear power stations</a>]]></description>
		</Placemark>
		<Placemark>
			<name><![CDATA[Zaporizhzhia Nuclear Power Plant]]></name>
			<Point>
				<coordinates>34.5858333333333,47.5122222222222,0</coordinates>
			</Point>
			<Snippet></Snippet>
			<description><![CDATA[<br>Source: Wikipedia article <a href="http://en.wikipedia.org/wiki/List_of_nuclear_power_stations#cite_ref-48">List of nuclear power stations</a>]]></description>
		</Placemark>
	</Folder>
	<Folder>
		<name><![CDATA[Under construction]]></name>
		<open>1</open>
		<Placemark>
			<name><![CDATA[Atucha Nuclear Power Station]]></name>
			<Point>
				<coordinates>-59.205,-33.9675,0</coordinates>
			</Point>
			<Snippet></Snippet>
			<description><![CDATA[<br>Source: Wikipedia article <a href="http://en.wikipedia.org/wiki/List_of_nuclear_power_stations#cite_ref-49">List of nuclear power stations</a>]]></description>
		</Placemark>
		<Placemark>
			<name><![CDATA[Braka Nuclear Power Plant]]></name>
			<Point>
				<coordinates>52.2836111111111,23.985,0</coordinates>
			</Point>
			<Snippet></Snippet>
			<description><![CDATA[<br>Source: Wikipedia article <a href="http://en.wikipedia.org/wiki/List_of_nuclear_power_stations#cite_ref-49">List of nuclear power stations</a>]]></description>
		</Placemark>
		<Placemark>
			<name><![CDATA[Belarusian Nuclear Power Plant]]></name>
			<Point>
				<coordinates>26.12,54.7619444444444,0</coordinates>
			</Point>
			<Snippet></Snippet>
			<description><![CDATA[<br>Source: Wikipedia article <a href="http://en.wikipedia.org/wiki/List_of_nuclear_power_stations#cite_ref-49">List of nuclear power stations</a>]]></description>
		</Placemark>
		<Placemark>
			<name><![CDATA[Beloyarsk Nuclear Power Station]]></name>
			<Point>
				<coordinates>61.3225,56.8416666666667,0</coordinates>
			</Point>
			<Snippet></Snippet>
			<description><![CDATA[<br>Source: Wikipedia article <a href="http://en.wikipedia.org/wiki/List_of_nuclear_power_stations#cite_ref-50">List of nuclear power stations</a>]]></description>
		</Placemark>
		<Placemark>
			<name><![CDATA[Changjiang Nuclear Power Plant]]></name>
			<Point>
				<coordinates>108.8125,19.4230555555556,0</coordinates>
			</Point>
			<Snippet></Snippet>
			<description><![CDATA[<br>Source: Wikipedia article <a href="http://en.wikipedia.org/wiki/List_of_nuclear_power_stations#cite_ref-50">List of nuclear power stations</a>]]></description>
		</Placemark>
		<Placemark>
			<name><![CDATA[Fangchenggang Nuclear Power Plant]]></name>
			<Point>
				<coordinates>108.560555555556,21.6766666666667,0</coordinates>
			</Point>
			<Snippet></Snippet>
			<description><![CDATA[<br>Source: Wikipedia article <a href="http://en.wikipedia.org/wiki/List_of_nuclear_power_stations#cite_ref-50">List of nuclear power stations</a>]]></description>
		</Placemark>
		<Placemark>
			<name><![CDATA[Fangjiashan Nuclear Power Plant]]></name>
			<Point>
				<coordinates>120.941666666667,30.4413888888889,0</coordinates>
			</Point>
			<Snippet></Snippet>
			<description><![CDATA[<br>Source: Wikipedia article <a href="http://en.wikipedia.org/wiki/List_of_nuclear_power_stations#cite_ref-50">List of nuclear power stations</a>]]></description>
		</Placemark>
		<Placemark>
			<name><![CDATA[Fuqing Nuclear Power Plant]]></name>
			<Point>
				<coordinates>119.446111111111,25.4441666666667,0</coordinates>
			</Point>
			<Snippet></Snippet>
			<description><![CDATA[<br>Source: Wikipedia article <a href="http://en.wikipedia.org/wiki/List_of_nuclear_power_stations#cite_ref-50">List of nuclear power stations</a>]]></description>
		</Placemark>
		<Placemark>
			<name><![CDATA[Haiyang Nuclear Power Plant]]></name>
			<Point>
				<coordinates>121.381666666667,36.7091666666667,0</coordinates>
			</Point>
			<Snippet></Snippet>
			<description><![CDATA[<br>Source: Wikipedia article <a href="http://en.wikipedia.org/wiki/List_of_nuclear_power_stations#cite_ref-50">List of nuclear power stations</a>]]></description>
		</Placemark>
		<Placemark>
			<name><![CDATA[Kakrapar Atomic Power Station]]></name>
			<Point>
				<coordinates>73.35,21.2386111111111,0</coordinates>
			</Point>
			<Snippet></Snippet>
			<description><![CDATA[<br>Source: Wikipedia article <a href="http://en.wikipedia.org/wiki/List_of_nuclear_power_stations#cite_ref-51">List of nuclear power stations</a>]]></description>
		</Placemark>
		<Placemark>
			<name><![CDATA[Kaliningrad Nuclear Power Plant]]></name>
			<Point>
				<coordinates>22.1611111111111,54.9388888888889,0</coordinates>
			</Point>
			<Snippet></Snippet>
			<description><![CDATA[<br>Source: Wikipedia article <a href="http://en.wikipedia.org/wiki/List_of_nuclear_power_stations#cite_ref-51">List of nuclear power stations</a>]]></description>
		</Placemark>
		<Placemark>
			<name><![CDATA[Leningrad Nuclear Power Plant II]]></name>
			<Point>
				<coordinates>29.0572222222222,59.8305555555556,0</coordinates>
			</Point>
			<Snippet></Snippet>
			<description><![CDATA[<br>Source: Wikipedia article <a href="http://en.wikipedia.org/wiki/List_of_nuclear_power_stations#cite_ref-51">List of nuclear power stations</a>]]></description>
		</Placemark>
		<Placemark>
			<name><![CDATA[Lungmen Nuclear Power Station]]></name>
			<Point>
				<coordinates>121.924166666667,25.0386111111111,0</coordinates>
			</Point>
			<Snippet></Snippet>
			<description><![CDATA[<br>Source: Wikipedia article <a href="http://en.wikipedia.org/wiki/List_of_nuclear_power_stations#cite_ref-51">List of nuclear power stations</a>]]></description>
		</Placemark>
		<Placemark>
			<name><![CDATA[Mochovce Nuclear Power Plant]]></name>
			<Point>
				<coordinates>18.4569444444444,48.2638888888889,0</coordinates>
			</Point>
			<Snippet></Snippet>
			<description><![CDATA[<br>Source: Wikipedia article <a href="http://en.wikipedia.org/wiki/List_of_nuclear_power_stations#cite_ref-52">List of nuclear power stations</a>]]></description>
		</Placemark>
		<Placemark>
			<name><![CDATA[Ōma Nuclear Power Plant]]></name>
			<Point>
				<coordinates>140.910277777778,41.5097222222222,0</coordinates>
			</Point>
			<Snippet></Snippet>
			<description><![CDATA[<br>Source: Wikipedia article <a href="http://en.wikipedia.org/wiki/List_of_nuclear_power_stations#cite_ref-52">List of nuclear power stations</a>]]></description>
		</Placemark>
		<Placemark>
			<name><![CDATA[Sanmen]]></name>
			<Point>
				<coordinates>121.639722222222,29.1011111111111,0</coordinates>
			</Point>
			<Snippet></Snippet>
			<description><![CDATA[<br>Source: Wikipedia article <a href="http://en.wikipedia.org/wiki/List_of_nuclear_power_stations#cite_ref-52">List of nuclear power stations</a>]]></description>
		</Placemark>
		<Placemark>
			<name><![CDATA[Shin Hanul Nuclear Power Plant]]></name>
			<Point>
				<coordinates>129.383611111111,37.0927777777778,0</coordinates>
			</Point>
			<Snippet></Snippet>
			<description><![CDATA[<br>Source: Wikipedia article <a href="http://en.wikipedia.org/wiki/List_of_nuclear_power_stations#cite_ref-52">List of nuclear power stations</a>]]></description>
		</Placemark>
		<Placemark>
			<name><![CDATA[Shin Wolseong Nuclear Power Station]]></name>
			<Point>
				<coordinates>129.478888888889,35.7222222222222,0</coordinates>
			</Point>
			<Snippet></Snippet>
			<description><![CDATA[<br>Source: Wikipedia article <a href="http://en.wikipedia.org/wiki/List_of_nuclear_power_stations#cite_ref-53">List of nuclear power stations</a>]]></description>
		</Placemark>
		<Placemark>
			<name><![CDATA[Taishan]]></name>
			<Point>
				<coordinates>112.979166666667,21.9094444444444,0</coordinates>
			</Point>
			<Snippet></Snippet>
			<description><![CDATA[<br>Source: Wikipedia article <a href="http://en.wikipedia.org/wiki/List_of_nuclear_power_stations#cite_ref-53">List of nuclear power stations</a>]]></description>
		</Placemark>
		<Placemark>
			<name><![CDATA[Virgil C. Summer Nuclear Power Plant]]></name>
			<Point>
				<coordinates>-81.3147222222222,34.2986111111111,0</coordinates>
			</Point>
			<Snippet></Snippet>
			<description><![CDATA[<br>Source: Wikipedia article <a href="http://en.wikipedia.org/wiki/List_of_nuclear_power_stations#cite_ref-54">List of nuclear power stations</a>]]></description>
		</Placemark>
	</Folder>
	<Folder>
		<name><![CDATA[Shut down]]></name>
		<open>1</open>
		<Placemark>
			<name><![CDATA[Barsebäck  Nuclear Power Station]]></name>
			<Point>
				<coordinates>12.9208333333333,55.7444444444444,0</coordinates>
			</Point>
			<Snippet></Snippet>
			<description><![CDATA[<br>Source: Wikipedia article <a href="http://en.wikipedia.org/wiki/List_of_nuclear_power_stations#Shut_down">List of nuclear power stations</a>]]></description>
		</Placemark>
		<Placemark>
			<name><![CDATA[Biblis Nuclear Power Station]]></name>
			<Point>
				<coordinates>8.41527777777778,49.71,0</coordinates>
			</Point>
			<Snippet></Snippet>
			<description><![CDATA[<br>Source: Wikipedia article <a href="http://en.wikipedia.org/wiki/List_of_nuclear_power_stations#Shut_down">List of nuclear power stations</a>]]></description>
		</Placemark>
		<Placemark>
			<name><![CDATA[Bohunice Nuclear Power Plant]]></name>
			<Point>
				<coordinates>17.6819444444444,48.4944444444444,0</coordinates>
			</Point>
			<Snippet></Snippet>
			<description><![CDATA[<br>Source: Wikipedia article <a href="http://en.wikipedia.org/wiki/List_of_nuclear_power_stations#cite_ref-55">List of nuclear power stations</a>]]></description>
		</Placemark>
		<Placemark>
			<name><![CDATA[Chernobyl Nuclear Power Plant]]></name>
			<Point>
				<coordinates>30.0991666666667,51.3894444444444,0</coordinates>
			</Point>
			<Snippet></Snippet>
			<description><![CDATA[<br>Source: Wikipedia article <a href="http://en.wikipedia.org/wiki/List_of_nuclear_power_stations#cite_ref-55">List of nuclear power stations</a>]]></description>
		</Placemark>
		<Placemark>
			<name><![CDATA[Fukushima I Nuclear Power Station]]></name>
			<Point>
				<coordinates>141.0325,37.4213888888889,0</coordinates>
			</Point>
			<Snippet></Snippet>
			<description><![CDATA[<br>Source: Wikipedia article <a href="http://en.wikipedia.org/wiki/List_of_nuclear_power_stations#cite_ref-55">List of nuclear power stations</a>]]></description>
		</Placemark>
		<Placemark>
			<name><![CDATA[Greifswald Nuclear Power Plant]]></name>
			<Point>
				<coordinates>13.6644444444444,54.1405555555556,0</coordinates>
			</Point>
			<Snippet></Snippet>
			<description><![CDATA[<br>Source: Wikipedia article <a href="http://en.wikipedia.org/wiki/List_of_nuclear_power_stations#cite_ref-55">List of nuclear power stations</a>]]></description>
		</Placemark>
		<Placemark>
			<name><![CDATA[Ignalina Nuclear Power Station]]></name>
			<Point>
				<coordinates>26.56,55.6044444444444,0</coordinates>
			</Point>
			<Snippet></Snippet>
			<description><![CDATA[<br>Source: Wikipedia article <a href="http://en.wikipedia.org/wiki/List_of_nuclear_power_stations#cite_ref-55">List of nuclear power stations</a>]]></description>
		</Placemark>
		<Placemark>
			<name><![CDATA[Krummel Nuclear Power Station]]></name>
			<Point>
				<coordinates>10.4088888888889,53.41,0</coordinates>
			</Point>
			<Snippet></Snippet>
			<description><![CDATA[<br>Source: Wikipedia article <a href="http://en.wikipedia.org/wiki/List_of_nuclear_power_stations#cite_ref-55">List of nuclear power stations</a>]]></description>
		</Placemark>
		<Placemark>
			<name><![CDATA[Mülheim-Kärlich Nuclear Power Plant]]></name>
			<Point>
				<coordinates>7.49,50.4080555555556,0</coordinates>
			</Point>
			<Snippet></Snippet>
			<description><![CDATA[<br>Source: Wikipedia article <a href="http://en.wikipedia.org/wiki/List_of_nuclear_power_stations#cite_ref-55">List of nuclear power stations</a>]]></description>
		</Placemark>
		<Placemark>
			<name><![CDATA[Three Mile Island Nuclear Generating Station]]></name>
			<Point>
				<coordinates>-76.7247222222222,40.1538888888889,0</coordinates>
			</Point>
			<Snippet></Snippet>
			<description><![CDATA[<br>Source: Wikipedia article <a href="http://en.wikipedia.org/wiki/List_of_nuclear_power_stations#cite_ref-56">List of nuclear power stations</a>]]></description>
		</Placemark>
		<Placemark>
			<name><![CDATA[San Onofre Nuclear Power Station]]></name>
			<Point>
				<coordinates>-117.555,33.3688888888889,0</coordinates>
			</Point>
			<Snippet></Snippet>
			<description><![CDATA[<br>Source: Wikipedia article <a href="http://en.wikipedia.org/wiki/List_of_nuclear_power_stations#cite_ref-57">List of nuclear power stations</a>]]></description>
		</Placemark>
		<Placemark>
			<name><![CDATA[Superphénix]]></name>
			<Point>
				<coordinates>5.47222222222222,45.7583333333333,0</coordinates>
			</Point>
			<Snippet></Snippet>
			<description><![CDATA[<br>Source: Wikipedia article <a href="http://en.wikipedia.org/wiki/List_of_nuclear_power_stations#cite_ref-57">List of nuclear power stations</a>]]></description>
		</Placemark>
		<Placemark>
			<name><![CDATA[Trojan Nuclear Power Plant]]></name>
			<Point>
				<coordinates>-122.885,46.0383333333333,0</coordinates>
			</Point>
			<Snippet></Snippet>
			<description><![CDATA[<br>Source: Wikipedia article <a href="http://en.wikipedia.org/wiki/List_of_nuclear_power_stations#cite_ref-57">List of nuclear power stations</a>]]></description>
		</Placemark>
		<Placemark>
			<name><![CDATA[Unterweser Nuclear Power Station]]></name>
			<Point>
				<coordinates>8.48027777777778,53.4277777777778,0</coordinates>
			</Point>
			<Snippet></Snippet>
			<description><![CDATA[<br>Source: Wikipedia article <a href="http://en.wikipedia.org/wiki/List_of_nuclear_power_stations#cite_ref-57">List of nuclear power stations</a>]]></description>
		</Placemark>
		<Placemark>
			<name><![CDATA[Zion Nuclear Power Station]]></name>
			<Point>
				<coordinates>-87.8030555555556,42.4463888888889,0</coordinates>
			</Point>
			<Snippet></Snippet>
			<description><![CDATA[<br>Source: Wikipedia article <a href="http://en.wikipedia.org/wiki/List_of_nuclear_power_stations#cite_ref-57">List of nuclear power stations</a>]]></description>
		</Placemark>
	</Folder>
</Document>
</kml>
